[
  {
    "name": "Praia do Oceano",
    "neighborhood": "São José do Norte",
    "city": "São José do Norte",
    "state": "RS",
    "latitude": -31.99345629999999,
    "longitude": -51.9273051
  },
  {
    "name": "Praia do Cassino",
    "neighborhood": "Rio Grande",
    "city": "Rio Grande",
    "state": "RS",
    "latitude": -32.2112752,
    "longitude": -52.18194
  },
  {
    "name": "Praia dos Molhes",
    "neighborhood": "Rio Grande",
    "city": "Rio Grande",
    "state": "RS",
    "latitude": -32.1666667,
    "longitude": -52.1166667
  },
  {
    "name": "Praia do Mar Grosso",
    "neighborhood": "Praia do mar grosso",
    "city": "São José do Norte",
    "state": "RS",
    "latitude": -32.0547171,
    "longitude": -51.9932753
  },
  {
    "name": "Praia da MARUMBI",
    "neighborhood": "São José do Norte",
    "city": "São José do Norte",
    "state": "RS",
    "latitude": -32.0443558,
    "longitude": -51.9870995
  },
  {
    "name": "Molhe Leste",
    "neighborhood": "Rio Grande",
    "city": "Rio Grande",
    "state": "RS",
    "latitude": -32.1874041,
    "longitude": -52.0745529
  },
  {
    "name": "Praia do Oceano",
    "neighborhood": "São José do Norte",
    "city": "São José do Norte",
    "state": "RS",
    "latitude": -32.0925973,
    "longitude": -52.036356
  },
  {
    "name": "PR da Barra",
    "neighborhood": "Brasil",
    "city": "Rio Grande",
    "state": "RS",
    "latitude": -32.1609339,
    "longitude": -52.0980959
  },
  {
    "name": "Praia do Bojuru",
    "neighborhood": "Bojuru",
    "city": "São José do Norte",
    "state": "RS",
    "latitude": -31.6629574,
    "longitude": -51.3830118
  },
  {
    "name": "Balneário Lagoa Dos Patos",
    "neighborhood": "Tavares",
    "city": "Tavares",
    "state": "RS",
    "latitude": -31.2787563,
    "longitude": -51.1555634
  },
  {
    "name": "Balneário Mostardense",
    "neighborhood": "Mostardas",
    "city": "Mostardas",
    "state": "RS",
    "latitude": -31.15373,
    "longitude": -50.8090482
  },
  {
    "name": "Balneário Lagoa Dos Patos",
    "neighborhood": "Tavares",
    "city": "Tavares",
    "state": "RS",
    "latitude": -31.2787563,
    "longitude": -51.1555634
  },
  {
    "name": "Praia de Bacupari",
    "neighborhood": "Doutor Edgardo Pereira Velho",
    "city": "Mostardas",
    "state": "RS",
    "latitude": -30.5358011,
    "longitude": -50.4251177
  },
  {
    "name": "Praia do Farol da Solidão Rio Grande do Sul",
    "neighborhood": "Doutor Edgardo Pereira Velho",
    "city": "Mostardas",
    "state": "RS",
    "latitude": -30.6973299,
    "longitude": -50.4791965
  },
  {
    "name": "Praia",
    "neighborhood": "Doutor Edgardo Pereira Velho",
    "city": "Mostardas",
    "state": "RS",
    "latitude": -30.5244246,
    "longitude": -50.355248
  },
  {
    "name": "Dunas Altas",
    "neighborhood": "Quintão",
    "city": "Palmares do Sul",
    "state": "RS",
    "latitude": -30.3974529,
    "longitude": -50.2905765
  },
  {
    "name": "Dunas Altas",
    "neighborhood": "Quintão",
    "city": "Palmares do Sul",
    "state": "RS",
    "latitude": -30.4253979,
    "longitude": -50.298206
  },
  {
    "name": "Praia",
    "neighborhood": "Doutor Edgardo Pereira Velho",
    "city": "Mostardas",
    "state": "RS",
    "latitude": -30.5425449,
    "longitude": -50.3645059
  },
  {
    "name": "Praia",
    "neighborhood": "Doutor Edgardo Pereira Velho",
    "city": "Mostardas",
    "state": "RS",
    "latitude": -30.6820255,
    "longitude": -50.4663784
  },
  {
    "name": "Praia da Santinha - Lagoa dos Barros",
    "neighborhood": "Passinhos",
    "city": "Santo Antônio da Patrulha",
    "state": "RS",
    "latitude": -29.9891981,
    "longitude": -50.37923929999999
  },
  {
    "name": "Praia de Tramandaí",
    "neighborhood": "Tramandaí",
    "city": "Tramandaí",
    "state": "RS",
    "latitude": -29.9974438,
    "longitude": -50.1280832
  },
  {
    "name": "Praia do Pinhal",
    "neighborhood": "Balneário Pinhal",
    "city": "Balneário Pinhal",
    "state": "RS",
    "latitude": -30.2679491,
    "longitude": -50.2376428
  },
  {
    "name": "Praia da Costa do Sol",
    "neighborhood": "CIDREIRA",
    "city": "Cidreira",
    "state": "RS",
    "latitude": -30.214744,
    "longitude": -50.2396933
  },
  {
    "name": "Praia Rei do Peixe - Balneário Quintão/RS",
    "neighborhood": "Quintão",
    "city": "Palmares do Sul",
    "state": "RS",
    "latitude": -30.3529716,
    "longitude": -50.2753671
  },
  {
    "name": "Praia do Terminal Turístico",
    "neighborhood": "Balneário Jardim Beira Mar",
    "city": "Tramandaí",
    "state": "RS",
    "latitude": -30.0219708,
    "longitude": -50.1388335
  },
  {
    "name": "Praia do Frade - Balneário Quintão/RS",
    "neighborhood": "Quintão",
    "city": "Palmares do Sul",
    "state": "RS",
    "latitude": -30.3677658,
    "longitude": -50.27767069999999
  },
  {
    "name": "Praia Santa Rita - Balneário Quintão/RS",
    "neighborhood": "Quintão",
    "city": "Palmares do Sul",
    "state": "RS",
    "latitude": -30.3752369,
    "longitude": -50.2839734
  },
  {
    "name": "Portal do Éden",
    "neighborhood": "Portal Do Éden",
    "city": "Tramandaí",
    "state": "RS",
    "latitude": -30.0754922,
    "longitude": -50.16661149999999
  },
  {
    "name": "Praia da Santinha - Lagoa dos Barros",
    "neighborhood": "Chicolomã",
    "city": "Santo Antônio da Patrulha",
    "state": "RS",
    "latitude": -29.9525807,
    "longitude": -50.4128413
  },
  {
    "name": "Praia da Costa do Sol",
    "neighborhood": "Costa do Sol",
    "city": "Cidreira",
    "state": "RS",
    "latitude": -30.2210691,
    "longitude": -50.2319246
  },
  {
    "name": "Albatroz",
    "neighborhood": "Albatroz",
    "city": "Imbé",
    "state": "RS",
    "latitude": -29.9112319,
    "longitude": -50.0891649
  },
  {
    "name": "Praia de Cidreira",
    "neighborhood": "Nova Tramandaí",
    "city": "Tramandaí",
    "state": "RS",
    "latitude": -30.0873958,
    "longitude": -50.1651574
  },
  {
    "name": "Jardim Éden",
    "neighborhood": "Tramandaí",
    "city": "Tramandaí",
    "state": "RS",
    "latitude": -30.0694839,
    "longitude": -50.16278029999999
  },
  {
    "name": "Prainha da Lagoa da Rondinha",
    "neighborhood": "Balneário Pinhal",
    "city": "Balneário Pinhal",
    "state": "RS",
    "latitude": -30.231945,
    "longitude": -50.2538066
  },
  {
    "name": "Praia de Tramandaí",
    "neighborhood": "Tramandaí",
    "city": "Tramandaí",
    "state": "RS",
    "latitude": -29.9853949,
    "longitude": -50.1229631
  },
  {
    "name": "São José",
    "neighborhood": "CIDREIRA",
    "city": "Cidreira",
    "state": "RS",
    "latitude": -30.2325645,
    "longitude": -50.2234771
  },
  {
    "name": "Cantinho da Lagoa",
    "neighborhood": "CIDREIRA",
    "city": "Cidreira",
    "state": "RS",
    "latitude": -30.1572167,
    "longitude": -50.224404
  },
  {
    "name": "Dunas Altas",
    "neighborhood": "Quintão",
    "city": "Palmares do Sul",
    "state": "RS",
    "latitude": -30.3974529,
    "longitude": -50.2905765
  },
  {
    "name": "Praia da Santinha - Lagoa dos Barros",
    "neighborhood": "Passinhos",
    "city": "Santo Antônio da Patrulha",
    "state": "RS",
    "latitude": -29.9891981,
    "longitude": -50.37923929999999
  },
  {
    "name": "Praia de Tramandaí",
    "neighborhood": "Tramandaí",
    "city": "Tramandaí",
    "state": "RS",
    "latitude": -29.9974438,
    "longitude": -50.1280832
  },
  {
    "name": "Praia do Pinhal",
    "neighborhood": "Balneário Pinhal",
    "city": "Balneário Pinhal",
    "state": "RS",
    "latitude": -30.2679491,
    "longitude": -50.2376428
  },
  {
    "name": "Praia da Costa do Sol",
    "neighborhood": "CIDREIRA",
    "city": "Cidreira",
    "state": "RS",
    "latitude": -30.214744,
    "longitude": -50.2396933
  },
  {
    "name": "Praia do Terminal Turístico",
    "neighborhood": "Balneário Jardim Beira Mar",
    "city": "Tramandaí",
    "state": "RS",
    "latitude": -30.0219708,
    "longitude": -50.1388335
  },
  {
    "name": "Praia Rei do Peixe - Balneário Quintão/RS",
    "neighborhood": "Quintão",
    "city": "Palmares do Sul",
    "state": "RS",
    "latitude": -30.3529716,
    "longitude": -50.2753671
  },
  {
    "name": "Praia do Frade - Balneário Quintão/RS",
    "neighborhood": "Quintão",
    "city": "Palmares do Sul",
    "state": "RS",
    "latitude": -30.3677658,
    "longitude": -50.27767069999999
  },
  {
    "name": "Praia Santa Rita - Balneário Quintão/RS",
    "neighborhood": "Quintão",
    "city": "Palmares do Sul",
    "state": "RS",
    "latitude": -30.3752369,
    "longitude": -50.2839734
  },
  {
    "name": "Portal do Éden",
    "neighborhood": "Portal Do Éden",
    "city": "Tramandaí",
    "state": "RS",
    "latitude": -30.0754922,
    "longitude": -50.16661149999999
  },
  {
    "name": "Praia da Costa do Sol",
    "neighborhood": "Costa do Sol",
    "city": "Cidreira",
    "state": "RS",
    "latitude": -30.2210691,
    "longitude": -50.2319246
  },
  {
    "name": "Praia de Cidreira",
    "neighborhood": "Nova Tramandaí",
    "city": "Tramandaí",
    "state": "RS",
    "latitude": -30.0873958,
    "longitude": -50.1651574
  },
  {
    "name": "Jardim Éden",
    "neighborhood": "Tramandaí",
    "city": "Tramandaí",
    "state": "RS",
    "latitude": -30.0694839,
    "longitude": -50.16278029999999
  },
  {
    "name": "Praia",
    "neighborhood": "Doutor Edgardo Pereira Velho",
    "city": "Mostardas",
    "state": "RS",
    "latitude": -30.5244246,
    "longitude": -50.355248
  },
  {
    "name": "São José",
    "neighborhood": "CIDREIRA",
    "city": "Cidreira",
    "state": "RS",
    "latitude": -30.2325645,
    "longitude": -50.2234771
  },
  {
    "name": "Prainha da Lagoa da Rondinha",
    "neighborhood": "Balneário Pinhal",
    "city": "Balneário Pinhal",
    "state": "RS",
    "latitude": -30.231945,
    "longitude": -50.2538066
  },
  {
    "name": "Cantinho da Lagoa",
    "neighborhood": "CIDREIRA",
    "city": "Cidreira",
    "state": "RS",
    "latitude": -30.1572167,
    "longitude": -50.224404
  },
  {
    "name": "Dunas Altas",
    "neighborhood": "Quintão",
    "city": "Palmares do Sul",
    "state": "RS",
    "latitude": -30.3974529,
    "longitude": -50.2905765
  },
  {
    "name": "Dunas Altas",
    "neighborhood": "Quintão",
    "city": "Palmares do Sul",
    "state": "RS",
    "latitude": -30.4253979,
    "longitude": -50.298206
  },
  {
    "name": "Balneário Tiarajú",
    "neighborhood": "Loteamento Tramandaí Zona Sul",
    "city": "Tramandaí",
    "state": "RS",
    "latitude": -30.0785641,
    "longitude": -50.1672649
  },
  {
    "name": "Praia Paraiso",
    "neighborhood": "Torres",
    "city": "Torres",
    "state": "RS",
    "latitude": -29.4401492,
    "longitude": -49.8013675
  },
  {
    "name": "Praia Santa Rita de Cássia",
    "neighborhood": "Terra de Areia",
    "city": "Terra de Areia",
    "state": "RS",
    "latitude": -29.6103645,
    "longitude": -49.9257032
  },
  {
    "name": "Praia da Guarita",
    "neighborhood": "Torres",
    "city": "Torres",
    "state": "RS",
    "latitude": -29.359621,
    "longitude": -49.736782
  },
  {
    "name": "Praia da Cal",
    "neighborhood": "Torres",
    "city": "Torres",
    "state": "RS",
    "latitude": -29.3490602,
    "longitude": -49.7305494
  },
  {
    "name": "Lagoinha",
    "neighborhood": "Brasil",
    "city": "Balneário Gaivota",
    "state": "SC",
    "latitude": -29.1244899,
    "longitude": -49.5419999
  },
  {
    "name": "Praia Rondinha Nova",
    "neighborhood": "Brasil",
    "city": "Arroio do Sal",
    "state": "RS",
    "latitude": -29.5001441,
    "longitude": -49.84736830000001
  },
  {
    "name": "Balneário São Jorge",
    "neighborhood": "dos Santos",
    "city": "Arroio do Sal",
    "state": "RS",
    "latitude": -29.5283398,
    "longitude": -49.8701032
  },
  {
    "name": "Praia Grande",
    "neighborhood": "Torres",
    "city": "Torres",
    "state": "RS",
    "latitude": -29.3338084,
    "longitude": -49.71753229999999
  },
  {
    "name": "Praia Itapeva",
    "neighborhood": "Torres",
    "city": "Torres",
    "state": "RS",
    "latitude": -29.3595599,
    "longitude": -49.7366409
  },
  {
    "name": "Praia Arroio Seco",
    "neighborhood": "Torres",
    "city": "Torres",
    "state": "RS",
    "latitude": -29.3948832,
    "longitude": -49.7657132
  },
  {
    "name": "Praia Areias Brancas",
    "neighborhood": "Brasil",
    "city": "Arroio do Sal",
    "state": "RS",
    "latitude": -29.54046349999999,
    "longitude": -49.8768073
  },
  {
    "name": "Balneário Atlântico",
    "neighborhood": "Brasil",
    "city": "Arroio do Sal",
    "state": "RS",
    "latitude": -29.4820174,
    "longitude": -49.83828579999999
  },
  {
    "name": "Praia Sereia do Mar",
    "neighborhood": "Brasil",
    "city": "Arroio do Sal",
    "state": "RS",
    "latitude": -29.582836,
    "longitude": -49.9069012
  },
  {
    "name": "Praia Xangrilá dos Mares",
    "neighborhood": "Balneário Rosa do Mar",
    "city": "Passo de Torres",
    "state": "SC",
    "latitude": -29.2481414,
    "longitude": -49.66227079999999
  },
  {
    "name": "Figueirinha - Arroio do Sal",
    "neighborhood": "Brasil",
    "city": "Arroio do Sal",
    "state": "RS",
    "latitude": -29.5592535,
    "longitude": -49.8902516
  },
  {
    "name": "Bela Torres",
    "neighborhood": "Brasil",
    "city": "Balneário Gaivota",
    "state": "SC",
    "latitude": -29.1762713,
    "longitude": -49.5820978
  },
  {
    "name": "Perola - Arroio do Sal",
    "neighborhood": "Pérola",
    "city": "Arroio do Sal",
    "state": "RS",
    "latitude": -29.5949307,
    "longitude": -49.9152278
  },
  {
    "name": "Praia Rondinha Velha",
    "neighborhood": "Brasil",
    "city": "Arroio do Sal",
    "state": "RS",
    "latitude": -29.4903321,
    "longitude": -49.8403306
  },
  {
    "name": "Praia Tupancy",
    "neighborhood": "Brasil",
    "city": "Arroio do Sal",
    "state": "RS",
    "latitude": -29.49096389999999,
    "longitude": -49.8402729
  },
  {
    "name": "Balneário Jardim Olivia",
    "neighborhood": "Brasil",
    "city": "Arroio do Sal",
    "state": "RS",
    "latitude": -29.5195082,
    "longitude": -49.8607924
  },
  {
    "name": "Rondinha",
    "neighborhood": "Brasil",
    "city": "Arroio do Sal",
    "state": "RS",
    "latitude": -29.5013789,
    "longitude": -49.8476449
  },
  {
    "name": "Prainha",
    "neighborhood": "Torres",
    "city": "Torres",
    "state": "RS",
    "latitude": -29.3432585,
    "longitude": -49.7254474
  },
  {
    "name": "Valverde",
    "neighborhood": "Brasil",
    "city": "Balneário Gaivota",
    "state": "SC",
    "latitude": -29.2298169,
    "longitude": -49.6364449
  },
  {
    "name": "Aguas Claras",
    "neighborhood": "Brasil",
    "city": "Balneário Gaivota",
    "state": "SC",
    "latitude": -29.1833439,
    "longitude": -49.5967709
  },
  {
    "name": "Praia Azul",
    "neighborhood": "Brasil",
    "city": "Arroio do Sal",
    "state": "RS",
    "latitude": -29.46754839999999,
    "longitude": -49.8233798
  },
  {
    "name": "Praia Balneário Atlântico",
    "neighborhood": "Brasil",
    "city": "Arroio do Sal",
    "state": "RS",
    "latitude": -29.4765671,
    "longitude": -49.8307352
  },
  {
    "name": "São Pedro - Arroio do Sal",
    "neighborhood": "Brasil",
    "city": "Arroio do Sal",
    "state": "RS",
    "latitude": -29.5149784,
    "longitude": -49.8582462
  },
  {
    "name": "Balneário Torres Sul",
    "neighborhood": "Brasil",
    "city": "Arroio do Sal",
    "state": "RS",
    "latitude": -29.4491856,
    "longitude": -49.8128948
  },
  {
    "name": "Praia Azul",
    "neighborhood": "Brasil",
    "city": "Arroio do Sal",
    "state": "RS",
    "latitude": -29.4761339,
    "longitude": -49.8292639
  },
  {
    "name": "Gaivotas",
    "neighborhood": "Brasil",
    "city": "Balneário Gaivota",
    "state": "SC",
    "latitude": -29.1564659,
    "longitude": -49.5718079
  },
  {
    "name": "Balneário Atlântico",
    "neighborhood": "Brasil",
    "city": "Arroio do Sal",
    "state": "RS",
    "latitude": -29.48580789999999,
    "longitude": -49.8362639
  },
  {
    "name": "Praia Paraiso",
    "neighborhood": "Torres",
    "city": "Torres",
    "state": "RS",
    "latitude": -29.4401492,
    "longitude": -49.8013675
  },
  {
    "name": "Praia Santa Rita de Cássia",
    "neighborhood": "Terra de Areia",
    "city": "Terra de Areia",
    "state": "RS",
    "latitude": -29.6103645,
    "longitude": -49.9257032
  },
  {
    "name": "Praia Rondinha Nova",
    "neighborhood": "Brasil",
    "city": "Arroio do Sal",
    "state": "RS",
    "latitude": -29.5001441,
    "longitude": -49.84736830000001
  },
  {
    "name": "Balneário São Jorge",
    "neighborhood": "dos Santos",
    "city": "Arroio do Sal",
    "state": "RS",
    "latitude": -29.5283398,
    "longitude": -49.8701032
  },
  {
    "name": "Praia Areias Brancas",
    "neighborhood": "Brasil",
    "city": "Arroio do Sal",
    "state": "RS",
    "latitude": -29.54046349999999,
    "longitude": -49.8768073
  },
  {
    "name": "Praia de Xangri-lá",
    "neighborhood": "XANGRI-LÁ",
    "city": "Xangri-lá",
    "state": "RS",
    "latitude": -29.7922085,
    "longitude": -50.0287118
  },
  {
    "name": "Praia Rainha do Mar",
    "neighborhood": "Miriapolis",
    "city": "Osório",
    "state": "RS",
    "latitude": -29.8640383,
    "longitude": -50.06658729999999
  },
  {
    "name": "Albatroz",
    "neighborhood": "Albatroz",
    "city": "Imbé",
    "state": "RS",
    "latitude": -29.9112319,
    "longitude": -50.0891649
  },
  {
    "name": "Balneário Atlântico",
    "neighborhood": "Brasil",
    "city": "Arroio do Sal",
    "state": "RS",
    "latitude": -29.4820174,
    "longitude": -49.83828579999999
  },
  {
    "name": "Praia Rota do Sol",
    "neighborhood": "Arroio Teixeira",
    "city": "Capão da Canoa",
    "state": "RS",
    "latitude": -29.6438296,
    "longitude": -49.9466228
  },
  {
    "name": "Praia Sereia do Mar",
    "neighborhood": "Brasil",
    "city": "Arroio do Sal",
    "state": "RS",
    "latitude": -29.582836,
    "longitude": -49.9069012
  },
  {
    "name": "Praia Sul Atlântida",
    "neighborhood": "Atlantida Sul",
    "city": "Osório",
    "state": "RS",
    "latitude": -29.8683683,
    "longitude": -50.0685138
  },
  {
    "name": "Praia Rondinha Velha",
    "neighborhood": "Brasil",
    "city": "Arroio do Sal",
    "state": "RS",
    "latitude": -29.4903321,
    "longitude": -49.8403306
  },
  {
    "name": "Perola - Arroio do Sal",
    "neighborhood": "Pérola",
    "city": "Arroio do Sal",
    "state": "RS",
    "latitude": -29.5949307,
    "longitude": -49.9152278
  },
  {
    "name": "Figueirinha - Arroio do Sal",
    "neighborhood": "Brasil",
    "city": "Arroio do Sal",
    "state": "RS",
    "latitude": -29.5592535,
    "longitude": -49.8902516
  },
  {
    "name": "Atlântida",
    "neighborhood": "Capão da Canoa",
    "city": "Capão da Canoa",
    "state": "RS",
    "latitude": -29.7301132,
    "longitude": -49.995991
  },
  {
    "name": "Praia da Santinha - Lagoa dos Barros",
    "neighborhood": "Passinhos",
    "city": "Santo Antônio da Patrulha",
    "state": "RS",
    "latitude": -29.9891981,
    "longitude": -50.37923929999999
  },
  {
    "name": "Praia de Tramandaí",
    "neighborhood": "Tramandaí",
    "city": "Tramandaí",
    "state": "RS",
    "latitude": -29.9974438,
    "longitude": -50.1280832
  },
  {
    "name": "Praia da Costa do Sol",
    "neighborhood": "CIDREIRA",
    "city": "Cidreira",
    "state": "RS",
    "latitude": -30.214744,
    "longitude": -50.2396933
  },
  {
    "name": "Praia do Terminal Turístico",
    "neighborhood": "Balneário Jardim Beira Mar",
    "city": "Tramandaí",
    "state": "RS",
    "latitude": -30.0219708,
    "longitude": -50.1388335
  },
  {
    "name": "Portal do Éden",
    "neighborhood": "Portal Do Éden",
    "city": "Tramandaí",
    "state": "RS",
    "latitude": -30.0754922,
    "longitude": -50.16661149999999
  },
  {
    "name": "Praia de Xangri-lá",
    "neighborhood": "XANGRI-LÁ",
    "city": "Xangri-lá",
    "state": "RS",
    "latitude": -29.7922085,
    "longitude": -50.0287118
  },
  {
    "name": "Praia Rainha do Mar",
    "neighborhood": "Miriapolis",
    "city": "Osório",
    "state": "RS",
    "latitude": -29.8640383,
    "longitude": -50.06658729999999
  },
  {
    "name": "Praia da Santinha - Lagoa dos Barros",
    "neighborhood": "Chicolomã",
    "city": "Santo Antônio da Patrulha",
    "state": "RS",
    "latitude": -29.9525807,
    "longitude": -50.4128413
  },
  {
    "name": "Praia da Costa do Sol",
    "neighborhood": "Costa do Sol",
    "city": "Cidreira",
    "state": "RS",
    "latitude": -30.2210691,
    "longitude": -50.2319246
  },
  {
    "name": "Albatroz",
    "neighborhood": "Albatroz",
    "city": "Imbé",
    "state": "RS",
    "latitude": -29.9112319,
    "longitude": -50.0891649
  },
  {
    "name": "Praia de Cidreira",
    "neighborhood": "Nova Tramandaí",
    "city": "Tramandaí",
    "state": "RS",
    "latitude": -30.0873958,
    "longitude": -50.1651574
  },
  {
    "name": "Jardim Éden",
    "neighborhood": "Tramandaí",
    "city": "Tramandaí",
    "state": "RS",
    "latitude": -30.0694839,
    "longitude": -50.16278029999999
  },
  {
    "name": "Praia de Tramandaí",
    "neighborhood": "Tramandaí",
    "city": "Tramandaí",
    "state": "RS",
    "latitude": -29.9853949,
    "longitude": -50.1229631
  },
  {
    "name": "Praia Sul Atlântida",
    "neighborhood": "Atlantida Sul",
    "city": "Osório",
    "state": "RS",
    "latitude": -29.8683683,
    "longitude": -50.0685138
  },
  {
    "name": "São José",
    "neighborhood": "CIDREIRA",
    "city": "Cidreira",
    "state": "RS",
    "latitude": -30.2325645,
    "longitude": -50.2234771
  },
  {
    "name": "Prainha da Lagoa da Rondinha",
    "neighborhood": "Balneário Pinhal",
    "city": "Balneário Pinhal",
    "state": "RS",
    "latitude": -30.231945,
    "longitude": -50.2538066
  },
  {
    "name": "Cantinho da Lagoa",
    "neighborhood": "CIDREIRA",
    "city": "Cidreira",
    "state": "RS",
    "latitude": -30.1572167,
    "longitude": -50.224404
  },
  {
    "name": "Atlântida",
    "neighborhood": "Capão da Canoa",
    "city": "Capão da Canoa",
    "state": "RS",
    "latitude": -29.7301132,
    "longitude": -49.995991
  },
  {
    "name": "Praia do Terminal Turístico",
    "neighborhood": "Balneário Jardim Beira Mar",
    "city": "Tramandaí",
    "state": "RS",
    "latitude": -30.0219708,
    "longitude": -50.1388335
  },
  {
    "name": "Praia do Pinhal",
    "neighborhood": "Balneário Pinhal",
    "city": "Balneário Pinhal",
    "state": "RS",
    "latitude": -30.2679491,
    "longitude": -50.2376428
  },
  {
    "name": "Praia da Costa do Sol",
    "neighborhood": "CIDREIRA",
    "city": "Cidreira",
    "state": "RS",
    "latitude": -30.214744,
    "longitude": -50.2396933
  },
  {
    "name": "Portal do Éden",
    "neighborhood": "Portal Do Éden",
    "city": "Tramandaí",
    "state": "RS",
    "latitude": -30.0754922,
    "longitude": -50.16661149999999
  },
  {
    "name": "Praia Rei do Peixe - Balneário Quintão/RS",
    "neighborhood": "Quintão",
    "city": "Palmares do Sul",
    "state": "RS",
    "latitude": -30.3529716,
    "longitude": -50.2753671
  },
  {
    "name": "Praia de Bacupari",
    "neighborhood": "Doutor Edgardo Pereira Velho",
    "city": "Mostardas",
    "state": "RS",
    "latitude": -30.5358011,
    "longitude": -50.4251177
  },
  {
    "name": "Praia do Frade - Balneário Quintão/RS",
    "neighborhood": "Quintão",
    "city": "Palmares do Sul",
    "state": "RS",
    "latitude": -30.3677658,
    "longitude": -50.27767069999999
  },
  {
    "name": "Praia da Costa do Sol",
    "neighborhood": "Costa do Sol",
    "city": "Cidreira",
    "state": "RS",
    "latitude": -30.2210691,
    "longitude": -50.2319246
  },
  {
    "name": "Jardim Éden",
    "neighborhood": "Tramandaí",
    "city": "Tramandaí",
    "state": "RS",
    "latitude": -30.0694839,
    "longitude": -50.16278029999999
  },
  {
    "name": "Praia de Cidreira",
    "neighborhood": "Nova Tramandaí",
    "city": "Tramandaí",
    "state": "RS",
    "latitude": -30.0873958,
    "longitude": -50.1651574
  },
  {
    "name": "Praia",
    "neighborhood": "Doutor Edgardo Pereira Velho",
    "city": "Mostardas",
    "state": "RS",
    "latitude": -30.5244246,
    "longitude": -50.355248
  },
  {
    "name": "São José",
    "neighborhood": "CIDREIRA",
    "city": "Cidreira",
    "state": "RS",
    "latitude": -30.2325645,
    "longitude": -50.2234771
  },
  {
    "name": "Prainha da Lagoa da Rondinha",
    "neighborhood": "Balneário Pinhal",
    "city": "Balneário Pinhal",
    "state": "RS",
    "latitude": -30.231945,
    "longitude": -50.2538066
  },
  {
    "name": "Praia Santa Rita - Balneário Quintão/RS",
    "neighborhood": "Quintão",
    "city": "Palmares do Sul",
    "state": "RS",
    "latitude": -30.3752369,
    "longitude": -50.2839734
  },
  {
    "name": "Cantinho da Lagoa",
    "neighborhood": "CIDREIRA",
    "city": "Cidreira",
    "state": "RS",
    "latitude": -30.1572167,
    "longitude": -50.224404
  },
  {
    "name": "Dunas Altas",
    "neighborhood": "Quintão",
    "city": "Palmares do Sul",
    "state": "RS",
    "latitude": -30.3974529,
    "longitude": -50.2905765
  },
  {
    "name": "Praia",
    "neighborhood": "Doutor Edgardo Pereira Velho",
    "city": "Mostardas",
    "state": "RS",
    "latitude": -30.5425449,
    "longitude": -50.3645059
  },
  {
    "name": "Balneário Tiarajú",
    "neighborhood": "Loteamento Tramandaí Zona Sul",
    "city": "Tramandaí",
    "state": "RS",
    "latitude": -30.0785641,
    "longitude": -50.1672649
  },
  {
    "name": "Dunas Altas",
    "neighborhood": "Quintão",
    "city": "Palmares do Sul",
    "state": "RS",
    "latitude": -30.4253979,
    "longitude": -50.298206
  },
  {
    "name": "Balneário Tiarajú - Tramandaí/RS",
    "neighborhood": "Tramandaí",
    "city": "Tramandaí",
    "state": "RS",
    "latitude": -30.0778307,
    "longitude": -50.1697648
  }
]