[
  {
    "name": "Praia De Guaratuba",
    "neighborhood": "",
    "city": "Guaratuba",
    "state": "PR",
    "latitude": -25.8830682,
    "longitude": -48.5685396
  },
  {
    "name": "Praia de Leste/Pontal do Paraná-PR",
    "neighborhood": "Praia de Leste",
    "city": "Pontal do Paraná",
    "state": "PR",
    "latitude": -25.699437,
    "longitude": -48.4712425
  },
  {
    "name": "Praia de Guaraparí",
    "neighborhood": "Guarapari",
    "city": "Pontal do Paraná",
    "state": "PR",
    "latitude": -25.6728742,
    "longitude": -48.4511592
  },
  {
    "name": "Praia do Belo",
    "neighborhood": "",
    "city": "Paranaguá",
    "state": "PR",
    "latitude": -25.551485,
    "longitude": -48.30733499999999
  },
  {
    "name": "Praia De GUARATUBA",
    "neighborhood": "",
    "city": "Guaratuba",
    "state": "PR",
    "latitude": -25.9044518,
    "longitude": -48.5687334
  },
  {
    "name": "Praia do Forte",
    "neighborhood": "",
    "city": "São Francisco do Sul",
    "state": "SC",
    "latitude": -26.1656081,
    "longitude": -48.5335796
  },
  {
    "name": "Praia Central",
    "neighborhood": "Centro",
    "city": "Guaratuba",
    "state": "PR",
    "latitude": -25.8847947,
    "longitude": -48.5682907
  },
  {
    "name": "Praia do olho dagua",
    "neighborhood": "",
    "city": "Pontal do Paraná",
    "state": "PR",
    "latitude": -25.641916,
    "longitude": -48.4303307
  },
  {
    "name": "Praia Avenida",
    "neighborhood": "Centro",
    "city": "São Francisco do Sul",
    "state": "SC",
    "latitude": -26.2523152,
    "longitude": -48.64396929999999
  },
  {
    "name": "Praia da Boia",
    "neighborhood": "",
    "city": "Paranaguá",
    "state": "PR",
    "latitude": -25.5723785,
    "longitude": -48.31046320000001
  },
  {
    "name": "Praia do Paranaguá",
    "neighborhood": "",
    "city": "Pontal do Paraná",
    "state": "PR",
    "latitude": -25.6166667,
    "longitude": -48.45
  },
  {
    "name": "Praia de Fora",
    "neighborhood": "",
    "city": "Paranaguá",
    "state": "PR",
    "latitude": -25.5423176,
    "longitude": -48.2931021
  },
  {
    "name": "Praia de Fora",
    "neighborhood": "",
    "city": "Paranaguá",
    "state": "PR",
    "latitude": -25.5697302,
    "longitude": -48.3093733
  },
  {
    "name": "Praia do Miguel",
    "neighborhood": "",
    "city": "Paranaguá",
    "state": "PR",
    "latitude": -25.5588791,
    "longitude": -48.3025229
  },
  {
    "name": "Praia do Porto",
    "neighborhood": "Porto Fino",
    "city": "Pontal do Paraná",
    "state": "PR",
    "latitude": -25.6756891,
    "longitude": -48.4528378
  },
  {
    "name": "Praia da Gruta",
    "neighborhood": "",
    "city": "Paranaguá",
    "state": "PR",
    "latitude": -25.5738106,
    "longitude": -48.3113196
  },
  {
    "name": "Praia da Fortaleza",
    "neighborhood": "",
    "city": "Paranaguá",
    "state": "PR",
    "latitude": -25.5293816,
    "longitude": -48.3099961
  },
  {
    "name": "Balneário Praia Grande",
    "neighborhood": "",
    "city": "Matinhos",
    "state": "PR",
    "latitude": -25.7849851,
    "longitude": -48.518471
  },
  {
    "name": "Praia De Itapoá",
    "neighborhood": "Bamerindus",
    "city": "Itapoá",
    "state": "SC",
    "latitude": -26.1369359,
    "longitude": -48.5953865
  },
  {
    "name": "Praia Grande",
    "neighborhood": "",
    "city": "Paranaguá",
    "state": "PR",
    "latitude": -25.5502768,
    "longitude": -48.2969186
  },
  {
    "name": "Praia do Pontal do Norte",
    "neighborhood": "Pontal do Norte",
    "city": "Itapoá",
    "state": "SC",
    "latitude": -26.1740638,
    "longitude": -48.58585129999999
  },
  {
    "name": "Praia Dos Kucek",
    "neighborhood": "",
    "city": "Matinhos",
    "state": "PR",
    "latitude": -25.7408092,
    "longitude": -48.4952888
  },
  {
    "name": "Praia da Barra do Saí-Mirim",
    "neighborhood": "Entre-Rios",
    "city": "Itapoá",
    "state": "SC",
    "latitude": -25.985611,
    "longitude": -48.5983344
  },
  {
    "name": "Praia Brava",
    "neighborhood": "",
    "city": "São Francisco do Sul",
    "state": "SC",
    "latitude": -26.2431756,
    "longitude": -48.5075467
  },
  {
    "name": "Praia Ipanema",
    "neighborhood": "",
    "city": "Pontal do Paraná",
    "state": "PR",
    "latitude": -25.6611111,
    "longitude": -48.4430556
  },
  {
    "name": "Canoas Beach",
    "neighborhood": "Canoas",
    "city": "Pontal do Paraná",
    "state": "PR",
    "latitude": -25.6879979,
    "longitude": -48.4614627
  },
  {
    "name": "Praia Grande",
    "neighborhood": "Balneario Nereiras",
    "city": "Guaratuba",
    "state": "PR",
    "latitude": -25.9280556,
    "longitude": -48.57972220000001
  },
  {
    "name": "Praia do Amparo",
    "neighborhood": "",
    "city": "Paranaguá",
    "state": "PR",
    "latitude": -25.4692447,
    "longitude": -48.509548
  },
  {
    "name": "Praia de Caieiras",
    "neighborhood": "",
    "city": "Guaratuba",
    "state": "PR",
    "latitude": -25.8652833,
    "longitude": -48.5640671
  },
  {
    "name": "Praia Pontal do Sul",
    "neighborhood": "",
    "city": "Paranaguá",
    "state": "PR",
    "latitude": -25.5838889,
    "longitude": -48.3511111
  },
  {
    "name": "Praia Antônio Pereira",
    "neighborhood": "",
    "city": "São Francisco do Sul",
    "state": "SC",
    "latitude": -26.2854551,
    "longitude": -48.6789663
  },
  {
    "name": "Sao Francisco Do Sul",
    "neighborhood": "",
    "city": "São Francisco do Sul",
    "state": "SC",
    "latitude": -26.3107802,
    "longitude": -48.5983276
  },
  {
    "name": "Farol Beach",
    "neighborhood": "",
    "city": "Paranaguá",
    "state": "PR",
    "latitude": -25.5389907,
    "longitude": -48.2975413
  },
  {
    "name": "Praia do Brejatuba",
    "neighborhood": "Brejatuba",
    "city": "Guaratuba",
    "state": "PR",
    "latitude": -25.9002192,
    "longitude": -48.5664135
  },
  {
    "name": "Praia do Belo",
    "neighborhood": "",
    "city": "Paranaguá",
    "state": "PR",
    "latitude": -25.5536111,
    "longitude": -48.3088889
  },
  {
    "name": "Praia de Brasília",
    "neighborhood": "",
    "city": "Paranaguá",
    "state": "PR",
    "latitude": -25.5402933,
    "longitude": -48.3061037
  },
  {
    "name": "Praia de Riviera",
    "neighborhood": "Flamingo",
    "city": "Matinhos",
    "state": "PR",
    "latitude": -25.7982888,
    "longitude": -48.5253302
  },
  {
    "name": "Praia Brava de Caiobá",
    "neighborhood": "Centro",
    "city": "Matinhos",
    "state": "PR",
    "latitude": -25.835,
    "longitude": -48.5366667
  },
  {
    "name": "Praia dos Ingleses",
    "neighborhood": "Do Paulas",
    "city": "São Francisco do Sul",
    "state": "SC",
    "latitude": -26.2311408,
    "longitude": -48.6286293
  },
  {
    "name": "Praia de Figueira",
    "neighborhood": "Balneario Eliana",
    "city": "Guaratuba",
    "state": "PR",
    "latitude": -25.9186406,
    "longitude": -48.5758001
  },
  {
    "name": "Praia de Itapoã",
    "neighborhood": "Porto Fino",
    "city": "Pontal do Paraná",
    "state": "PR",
    "latitude": -25.677428,
    "longitude": -48.4542043
  },
  {
    "name": "Praia do Limoeiro",
    "neighborhood": "",
    "city": "Paranaguá",
    "state": "PR",
    "latitude": -25.5260207,
    "longitude": -48.3497147
  },
  {
    "name": "Praia de Matinhos",
    "neighborhood": "Riviera",
    "city": "Matinhos",
    "state": "PR",
    "latitude": -25.7934571,
    "longitude": -48.5226304
  },
  {
    "name": "Praia de Matinhos",
    "neighborhood": "",
    "city": "Matinhos",
    "state": "PR",
    "latitude": -25.7422222,
    "longitude": -48.4941667
  },
  {
    "name": "Enseada",
    "neighborhood": "Praia da Enseada",
    "city": "São Francisco do Sul",
    "state": "SC",
    "latitude": -26.226379,
    "longitude": -48.50984889999999
  },
  {
    "name": "Pontal do Paraná",
    "neighborhood": "Shangrila",
    "city": "Pontal do Paraná",
    "state": "PR",
    "latitude": -25.6248233,
    "longitude": -48.41699680000001
  },
  {
    "name": "Prainha",
    "neighborhood": "Praia da Enseada",
    "city": "São Francisco do Sul",
    "state": "SC",
    "latitude": -26.2304911,
    "longitude": -48.5003725
  },
  {
    "name": "Balneário Inajá",
    "neighborhood": "Praia Grande",
    "city": "Matinhos",
    "state": "PR",
    "latitude": -25.7698491,
    "longitude": -48.5137497
  },
  {
    "name": "Balneário Praia Grande",
    "neighborhood": "Riviera",
    "city": "Matinhos",
    "state": "PR",
    "latitude": -25.7989283,
    "longitude": -48.5276913
  },
  {
    "name": "Praia de Ipanema - Paraná",
    "neighborhood": "",
    "city": "Pontal do Paraná",
    "state": "PR",
    "latitude": -25.6613474,
    "longitude": -48.44365519999999
  },
  {
    "name": "Balneário Grajaú",
    "neighborhood": "Grajau",
    "city": "Pontal do Paraná",
    "state": "PR",
    "latitude": -25.6445157,
    "longitude": -48.4331726
  },
  {
    "name": "Balneário Shangri-lá",
    "neighborhood": "865",
    "city": "Pontal do Paraná",
    "state": "PR",
    "latitude": -25.6263198,
    "longitude": -48.4196815
  },
  {
    "name": "Praia do Istmo",
    "neighborhood": "",
    "city": "Paranaguá",
    "state": "PR",
    "latitude": -25.5388877,
    "longitude": -48.306415
  },
  {
    "name": "Bonita",
    "neighborhood": "Vila da Gloria",
    "city": "São Francisco do Sul",
    "state": "SC",
    "latitude": -26.2089375,
    "longitude": -48.6572724
  },
  {
    "name": "Praia Mansa de Caioba",
    "neighborhood": "",
    "city": "Matinhos",
    "state": "PR",
    "latitude": -25.8496803,
    "longitude": -48.5452995
  },
  {
    "name": "Capri",
    "neighborhood": "",
    "city": "São Francisco do Sul",
    "state": "SC",
    "latitude": -26.1788001,
    "longitude": -48.5640671
  },
  {
    "name": "Praia do Paulas",
    "neighborhood": "Do Paulas",
    "city": "São Francisco do Sul",
    "state": "SC",
    "latitude": -26.2307131,
    "longitude": -48.6242678
  },
  {
    "name": "Praia Barra do Sai",
    "neighborhood": "Balneario Barra Do Sai",
    "city": "Guaratuba",
    "state": "PR",
    "latitude": -25.9734205,
    "longitude": -48.5959866
  },
  {
    "name": "Praia Grande",
    "neighborhood": "Flórida",
    "city": "Matinhos",
    "state": "PR",
    "latitude": -25.7790329,
    "longitude": -48.51512820000001
  },
  {
    "name": "Praia Mansa",
    "neighborhood": "Praia Mansa",
    "city": "Matinhos",
    "state": "PR",
    "latitude": -25.8463889,
    "longitude": -48.5394444
  },
  {
    "name": "Praia De Guaratuba",
    "neighborhood": "",
    "city": "Guaratuba",
    "state": "PR",
    "latitude": -25.8830682,
    "longitude": -48.5685396
  },
  {
    "name": "Praia de Leste/Pontal do Paraná-PR",
    "neighborhood": "Praia de Leste",
    "city": "Pontal do Paraná",
    "state": "PR",
    "latitude": -25.699437,
    "longitude": -48.4712425
  },
  {
    "name": "Praia de Guaraparí",
    "neighborhood": "Guarapari",
    "city": "Pontal do Paraná",
    "state": "PR",
    "latitude": -25.6728742,
    "longitude": -48.4511592
  },
  {
    "name": "Praia do Belo",
    "neighborhood": "",
    "city": "Paranaguá",
    "state": "PR",
    "latitude": -25.551485,
    "longitude": -48.30733499999999
  },
  {
    "name": "Praia De GUARATUBA",
    "neighborhood": "",
    "city": "Guaratuba",
    "state": "PR",
    "latitude": -25.9044518,
    "longitude": -48.5687334
  },
  {
    "name": "Praia do Forte",
    "neighborhood": "",
    "city": "São Francisco do Sul",
    "state": "SC",
    "latitude": -26.1656081,
    "longitude": -48.5335796
  },
  {
    "name": "Praia Central",
    "neighborhood": "Centro",
    "city": "Guaratuba",
    "state": "PR",
    "latitude": -25.8847947,
    "longitude": -48.5682907
  },
  {
    "name": "Praia do olho dagua",
    "neighborhood": "",
    "city": "Pontal do Paraná",
    "state": "PR",
    "latitude": -25.641916,
    "longitude": -48.4303307
  },
  {
    "name": "Praia da Boia",
    "neighborhood": "",
    "city": "Paranaguá",
    "state": "PR",
    "latitude": -25.5723785,
    "longitude": -48.31046320000001
  },
  {
    "name": "Praia do Paranaguá",
    "neighborhood": "",
    "city": "Pontal do Paraná",
    "state": "PR",
    "latitude": -25.6166667,
    "longitude": -48.45
  },
  {
    "name": "Praia de Fora",
    "neighborhood": "",
    "city": "Paranaguá",
    "state": "PR",
    "latitude": -25.5423176,
    "longitude": -48.2931021
  },
  {
    "name": "Praia de Fora",
    "neighborhood": "",
    "city": "Paranaguá",
    "state": "PR",
    "latitude": -25.5697302,
    "longitude": -48.3093733
  },
  {
    "name": "Praia do Miguel",
    "neighborhood": "",
    "city": "Paranaguá",
    "state": "PR",
    "latitude": -25.5588791,
    "longitude": -48.3025229
  },
  {
    "name": "Praia do Porto",
    "neighborhood": "Porto Fino",
    "city": "Pontal do Paraná",
    "state": "PR",
    "latitude": -25.6756891,
    "longitude": -48.4528378
  },
  {
    "name": "Praia da Gruta",
    "neighborhood": "",
    "city": "Paranaguá",
    "state": "PR",
    "latitude": -25.5738106,
    "longitude": -48.3113196
  },
  {
    "name": "Praia da Fortaleza",
    "neighborhood": "",
    "city": "Paranaguá",
    "state": "PR",
    "latitude": -25.5293816,
    "longitude": -48.3099961
  },
  {
    "name": "Balneário Praia Grande",
    "neighborhood": "",
    "city": "Matinhos",
    "state": "PR",
    "latitude": -25.7849851,
    "longitude": -48.518471
  },
  {
    "name": "Praia De Itapoá",
    "neighborhood": "Bamerindus",
    "city": "Itapoá",
    "state": "SC",
    "latitude": -26.1369359,
    "longitude": -48.5953865
  },
  {
    "name": "Praia Grande",
    "neighborhood": "",
    "city": "Paranaguá",
    "state": "PR",
    "latitude": -25.5502768,
    "longitude": -48.2969186
  },
  {
    "name": "Praia de Itapoã",
    "neighborhood": "Porto Fino",
    "city": "Pontal do Paraná",
    "state": "PR",
    "latitude": -25.677428,
    "longitude": -48.4542043
  },
  {
    "name": "Praia do Limoeiro",
    "neighborhood": "",
    "city": "Paranaguá",
    "state": "PR",
    "latitude": -25.5260207,
    "longitude": -48.3497147
  },
  {
    "name": "Praia de Brasília",
    "neighborhood": "",
    "city": "Paranaguá",
    "state": "PR",
    "latitude": -25.5402933,
    "longitude": -48.3061037
  },
  {
    "name": "Praia de Matinhos",
    "neighborhood": "Riviera",
    "city": "Matinhos",
    "state": "PR",
    "latitude": -25.7934571,
    "longitude": -48.5226304
  },
  {
    "name": "Canoas Beach",
    "neighborhood": "Canoas",
    "city": "Pontal do Paraná",
    "state": "PR",
    "latitude": -25.6879979,
    "longitude": -48.4614627
  },
  {
    "name": "Praia Dos Kucek",
    "neighborhood": "",
    "city": "Matinhos",
    "state": "PR",
    "latitude": -25.7408092,
    "longitude": -48.4952888
  },
  {
    "name": "Praia do Belo",
    "neighborhood": "",
    "city": "Paranaguá",
    "state": "PR",
    "latitude": -25.5536111,
    "longitude": -48.3088889
  },
  {
    "name": "Praia de Matinhos",
    "neighborhood": "",
    "city": "Matinhos",
    "state": "PR",
    "latitude": -25.7422222,
    "longitude": -48.4941667
  },
  {
    "name": "Enseada",
    "neighborhood": "Praia da Enseada",
    "city": "São Francisco do Sul",
    "state": "SC",
    "latitude": -26.226379,
    "longitude": -48.50984889999999
  },
  {
    "name": "Praia Grande",
    "neighborhood": "Balneario Nereiras",
    "city": "Guaratuba",
    "state": "PR",
    "latitude": -25.9280556,
    "longitude": -48.57972220000001
  },
  {
    "name": "Praia da Barra do Saí-Mirim",
    "neighborhood": "Entre-Rios",
    "city": "Itapoá",
    "state": "SC",
    "latitude": -25.985611,
    "longitude": -48.5983344
  },
  {
    "name": "Praia Ipanema",
    "neighborhood": "",
    "city": "Pontal do Paraná",
    "state": "PR",
    "latitude": -25.6611111,
    "longitude": -48.4430556
  },
  {
    "name": "Pontal do Paraná",
    "neighborhood": "Shangrila",
    "city": "Pontal do Paraná",
    "state": "PR",
    "latitude": -25.6248233,
    "longitude": -48.41699680000001
  },
  {
    "name": "Prainha",
    "neighborhood": "Praia da Enseada",
    "city": "São Francisco do Sul",
    "state": "SC",
    "latitude": -26.2304911,
    "longitude": -48.5003725
  },
  {
    "name": "Praia de Caieiras",
    "neighborhood": "",
    "city": "Guaratuba",
    "state": "PR",
    "latitude": -25.8652833,
    "longitude": -48.5640671
  },
  {
    "name": "Praia Brava de Caiobá",
    "neighborhood": "Centro",
    "city": "Matinhos",
    "state": "PR",
    "latitude": -25.835,
    "longitude": -48.5366667
  },
  {
    "name": "Praia do Amparo",
    "neighborhood": "",
    "city": "Paranaguá",
    "state": "PR",
    "latitude": -25.4692447,
    "longitude": -48.509548
  },
  {
    "name": "Balneário Inajá",
    "neighborhood": "Praia Grande",
    "city": "Matinhos",
    "state": "PR",
    "latitude": -25.7698491,
    "longitude": -48.5137497
  },
  {
    "name": "Balneário Praia Grande",
    "neighborhood": "Riviera",
    "city": "Matinhos",
    "state": "PR",
    "latitude": -25.7989283,
    "longitude": -48.5276913
  },
  {
    "name": "Praia de Figueira",
    "neighborhood": "Balneario Eliana",
    "city": "Guaratuba",
    "state": "PR",
    "latitude": -25.9186406,
    "longitude": -48.5758001
  },
  {
    "name": "Praia de Ipanema - Paraná",
    "neighborhood": "",
    "city": "Pontal do Paraná",
    "state": "PR",
    "latitude": -25.6613474,
    "longitude": -48.44365519999999
  },
  {
    "name": "Farol Beach",
    "neighborhood": "",
    "city": "Paranaguá",
    "state": "PR",
    "latitude": -25.5389907,
    "longitude": -48.2975413
  },
  {
    "name": "Praia do Pontal do Norte",
    "neighborhood": "Pontal do Norte",
    "city": "Itapoá",
    "state": "SC",
    "latitude": -26.1740638,
    "longitude": -48.58585129999999
  },
  {
    "name": "Balneário Grajaú",
    "neighborhood": "Grajau",
    "city": "Pontal do Paraná",
    "state": "PR",
    "latitude": -25.6445157,
    "longitude": -48.4331726
  },
  {
    "name": "Praia de Riviera",
    "neighborhood": "Flamingo",
    "city": "Matinhos",
    "state": "PR",
    "latitude": -25.7982888,
    "longitude": -48.5253302
  },
  {
    "name": "Balneário Shangri-lá",
    "neighborhood": "865",
    "city": "Pontal do Paraná",
    "state": "PR",
    "latitude": -25.6263198,
    "longitude": -48.4196815
  },
  {
    "name": "Praia do Istmo",
    "neighborhood": "",
    "city": "Paranaguá",
    "state": "PR",
    "latitude": -25.5388877,
    "longitude": -48.306415
  },
  {
    "name": "Bonita",
    "neighborhood": "Vila da Gloria",
    "city": "São Francisco do Sul",
    "state": "SC",
    "latitude": -26.2089375,
    "longitude": -48.6572724
  },
  {
    "name": "Praia Brava",
    "neighborhood": "",
    "city": "São Francisco do Sul",
    "state": "SC",
    "latitude": -26.2431756,
    "longitude": -48.5075467
  },
  {
    "name": "Praia dos Ingleses",
    "neighborhood": "Do Paulas",
    "city": "São Francisco do Sul",
    "state": "SC",
    "latitude": -26.2311408,
    "longitude": -48.6286293
  },
  {
    "name": "Praia Mansa de Caioba",
    "neighborhood": "",
    "city": "Matinhos",
    "state": "PR",
    "latitude": -25.8496803,
    "longitude": -48.5452995
  },
  {
    "name": "Capri",
    "neighborhood": "",
    "city": "São Francisco do Sul",
    "state": "SC",
    "latitude": -26.1788001,
    "longitude": -48.5640671
  },
  {
    "name": "Praia do Paulas",
    "neighborhood": "Do Paulas",
    "city": "São Francisco do Sul",
    "state": "SC",
    "latitude": -26.2307131,
    "longitude": -48.6242678
  },
  {
    "name": "Praia Barra do Sai",
    "neighborhood": "Balneario Barra Do Sai",
    "city": "Guaratuba",
    "state": "PR",
    "latitude": -25.9734205,
    "longitude": -48.5959866
  },
  {
    "name": "Praia Pontal do Sul",
    "neighborhood": "",
    "city": "Paranaguá",
    "state": "PR",
    "latitude": -25.5838889,
    "longitude": -48.3511111
  },
  {
    "name": "Praia Grande",
    "neighborhood": "Flórida",
    "city": "Matinhos",
    "state": "PR",
    "latitude": -25.7790329,
    "longitude": -48.51512820000001
  },
  {
    "name": "Praia Mansa",
    "neighborhood": "Praia Mansa",
    "city": "Matinhos",
    "state": "PR",
    "latitude": -25.8463889,
    "longitude": -48.5394444
  },
  {
    "name": "Praia do Forte",
    "neighborhood": "",
    "city": "São Francisco do Sul",
    "state": "SC",
    "latitude": -26.169947,
    "longitude": -48.5386634
  },
  {
    "name": "Enseada",
    "neighborhood": "Praia da Enseada",
    "city": "São Francisco do Sul",
    "state": "SC",
    "latitude": -26.2265981,
    "longitude": -48.5054394
  },
  {
    "name": "Monções",
    "neighborhood": "Monções",
    "city": "Pontal do Paraná",
    "state": "PR",
    "latitude": -25.7112647,
    "longitude": -48.4763062
  },
  {
    "name": "Praia de Albatroz",
    "neighborhood": "",
    "city": "Matinhos",
    "state": "PR",
    "latitude": -25.7319474,
    "longitude": -48.4890348
  },
  {
    "name": "Praia De Guaratuba",
    "neighborhood": "",
    "city": "Guaratuba",
    "state": "PR",
    "latitude": -25.8830682,
    "longitude": -48.5685396
  },
  {
    "name": "Praia de Leste/Pontal do Paraná-PR",
    "neighborhood": "Praia de Leste",
    "city": "Pontal do Paraná",
    "state": "PR",
    "latitude": -25.699437,
    "longitude": -48.4712425
  },
  {
    "name": "Praia de Guaraparí",
    "neighborhood": "Guarapari",
    "city": "Pontal do Paraná",
    "state": "PR",
    "latitude": -25.6728742,
    "longitude": -48.4511592
  },
  {
    "name": "Praia do Belo",
    "neighborhood": "",
    "city": "Paranaguá",
    "state": "PR",
    "latitude": -25.551485,
    "longitude": -48.30733499999999
  },
  {
    "name": "Praia De GUARATUBA",
    "neighborhood": "",
    "city": "Guaratuba",
    "state": "PR",
    "latitude": -25.9044518,
    "longitude": -48.5687334
  },
  {
    "name": "Praia Central",
    "neighborhood": "Centro",
    "city": "Guaratuba",
    "state": "PR",
    "latitude": -25.8847947,
    "longitude": -48.5682907
  },
  {
    "name": "Praia do olho dagua",
    "neighborhood": "",
    "city": "Pontal do Paraná",
    "state": "PR",
    "latitude": -25.641916,
    "longitude": -48.4303307
  },
  {
    "name": "Praia da Boia",
    "neighborhood": "",
    "city": "Paranaguá",
    "state": "PR",
    "latitude": -25.5723785,
    "longitude": -48.31046320000001
  },
  {
    "name": "Praia do Paranaguá",
    "neighborhood": "",
    "city": "Pontal do Paraná",
    "state": "PR",
    "latitude": -25.6166667,
    "longitude": -48.45
  },
  {
    "name": "Praia de Fora",
    "neighborhood": "",
    "city": "Paranaguá",
    "state": "PR",
    "latitude": -25.5423176,
    "longitude": -48.2931021
  },
  {
    "name": "Praia de Fora",
    "neighborhood": "",
    "city": "Paranaguá",
    "state": "PR",
    "latitude": -25.5697302,
    "longitude": -48.3093733
  },
  {
    "name": "Praia do Miguel",
    "neighborhood": "",
    "city": "Paranaguá",
    "state": "PR",
    "latitude": -25.5588791,
    "longitude": -48.3025229
  },
  {
    "name": "Praia do Porto",
    "neighborhood": "Porto Fino",
    "city": "Pontal do Paraná",
    "state": "PR",
    "latitude": -25.6756891,
    "longitude": -48.4528378
  },
  {
    "name": "Praia da Gruta",
    "neighborhood": "",
    "city": "Paranaguá",
    "state": "PR",
    "latitude": -25.5738106,
    "longitude": -48.3113196
  },
  {
    "name": "Praia da Fortaleza",
    "neighborhood": "",
    "city": "Paranaguá",
    "state": "PR",
    "latitude": -25.5293816,
    "longitude": -48.3099961
  },
  {
    "name": "Balneário Praia Grande",
    "neighborhood": "",
    "city": "Matinhos",
    "state": "PR",
    "latitude": -25.7849851,
    "longitude": -48.518471
  },
  {
    "name": "Praia Grande",
    "neighborhood": "",
    "city": "Paranaguá",
    "state": "PR",
    "latitude": -25.5502768,
    "longitude": -48.2969186
  },
  {
    "name": "Praia de Itapoã",
    "neighborhood": "Porto Fino",
    "city": "Pontal do Paraná",
    "state": "PR",
    "latitude": -25.677428,
    "longitude": -48.4542043
  },
  {
    "name": "Praia do Limoeiro",
    "neighborhood": "",
    "city": "Paranaguá",
    "state": "PR",
    "latitude": -25.5260207,
    "longitude": -48.3497147
  },
  {
    "name": "Praia de Brasília",
    "neighborhood": "",
    "city": "Paranaguá",
    "state": "PR",
    "latitude": -25.5402933,
    "longitude": -48.3061037
  },
  {
    "name": "Praia de Matinhos",
    "neighborhood": "Riviera",
    "city": "Matinhos",
    "state": "PR",
    "latitude": -25.7934571,
    "longitude": -48.5226304
  },
  {
    "name": "Canoas Beach",
    "neighborhood": "Canoas",
    "city": "Pontal do Paraná",
    "state": "PR",
    "latitude": -25.6879979,
    "longitude": -48.4614627
  },
  {
    "name": "Praia Dos Kucek",
    "neighborhood": "",
    "city": "Matinhos",
    "state": "PR",
    "latitude": -25.7408092,
    "longitude": -48.4952888
  },
  {
    "name": "Praia do Belo",
    "neighborhood": "",
    "city": "Paranaguá",
    "state": "PR",
    "latitude": -25.5536111,
    "longitude": -48.3088889
  },
  {
    "name": "Praia de Matinhos",
    "neighborhood": "",
    "city": "Matinhos",
    "state": "PR",
    "latitude": -25.7422222,
    "longitude": -48.4941667
  },
  {
    "name": "Praia Grande",
    "neighborhood": "Balneario Nereiras",
    "city": "Guaratuba",
    "state": "PR",
    "latitude": -25.9280556,
    "longitude": -48.57972220000001
  },
  {
    "name": "Praia Ipanema",
    "neighborhood": "",
    "city": "Pontal do Paraná",
    "state": "PR",
    "latitude": -25.6611111,
    "longitude": -48.4430556
  },
  {
    "name": "Pontal do Paraná",
    "neighborhood": "Shangrila",
    "city": "Pontal do Paraná",
    "state": "PR",
    "latitude": -25.6248233,
    "longitude": -48.41699680000001
  },
  {
    "name": "Praia de Caieiras",
    "neighborhood": "",
    "city": "Guaratuba",
    "state": "PR",
    "latitude": -25.8652833,
    "longitude": -48.5640671
  },
  {
    "name": "Praia Brava de Caiobá",
    "neighborhood": "Centro",
    "city": "Matinhos",
    "state": "PR",
    "latitude": -25.835,
    "longitude": -48.5366667
  },
  {
    "name": "Praia do Amparo",
    "neighborhood": "",
    "city": "Paranaguá",
    "state": "PR",
    "latitude": -25.4692447,
    "longitude": -48.509548
  },
  {
    "name": "Balneário Inajá",
    "neighborhood": "Praia Grande",
    "city": "Matinhos",
    "state": "PR",
    "latitude": -25.7698491,
    "longitude": -48.5137497
  },
  {
    "name": "Balneário Praia Grande",
    "neighborhood": "Riviera",
    "city": "Matinhos",
    "state": "PR",
    "latitude": -25.7989283,
    "longitude": -48.5276913
  },
  {
    "name": "Praia de Figueira",
    "neighborhood": "Balneario Eliana",
    "city": "Guaratuba",
    "state": "PR",
    "latitude": -25.9186406,
    "longitude": -48.5758001
  },
  {
    "name": "Praia de Ipanema - Paraná",
    "neighborhood": "",
    "city": "Pontal do Paraná",
    "state": "PR",
    "latitude": -25.6613474,
    "longitude": -48.44365519999999
  },
  {
    "name": "Farol Beach",
    "neighborhood": "",
    "city": "Paranaguá",
    "state": "PR",
    "latitude": -25.5389907,
    "longitude": -48.2975413
  },
  {
    "name": "Balneário Grajaú",
    "neighborhood": "Grajau",
    "city": "Pontal do Paraná",
    "state": "PR",
    "latitude": -25.6445157,
    "longitude": -48.4331726
  },
  {
    "name": "Praia de Riviera",
    "neighborhood": "Flamingo",
    "city": "Matinhos",
    "state": "PR",
    "latitude": -25.7982888,
    "longitude": -48.5253302
  },
  {
    "name": "Balneário Shangri-lá",
    "neighborhood": "865",
    "city": "Pontal do Paraná",
    "state": "PR",
    "latitude": -25.6263198,
    "longitude": -48.4196815
  },
  {
    "name": "Praia do Istmo",
    "neighborhood": "",
    "city": "Paranaguá",
    "state": "PR",
    "latitude": -25.5388877,
    "longitude": -48.306415
  },
  {
    "name": "Praia Mansa de Caioba",
    "neighborhood": "",
    "city": "Matinhos",
    "state": "PR",
    "latitude": -25.8496803,
    "longitude": -48.5452995
  },
  {
    "name": "Praia Barra do Sai",
    "neighborhood": "Balneario Barra Do Sai",
    "city": "Guaratuba",
    "state": "PR",
    "latitude": -25.9734205,
    "longitude": -48.5959866
  },
  {
    "name": "Praia Pontal do Sul",
    "neighborhood": "",
    "city": "Paranaguá",
    "state": "PR",
    "latitude": -25.5838889,
    "longitude": -48.3511111
  },
  {
    "name": "Praia Grande",
    "neighborhood": "Flórida",
    "city": "Matinhos",
    "state": "PR",
    "latitude": -25.7790329,
    "longitude": -48.51512820000001
  },
  {
    "name": "Praia Mansa",
    "neighborhood": "Praia Mansa",
    "city": "Matinhos",
    "state": "PR",
    "latitude": -25.8463889,
    "longitude": -48.5394444
  },
  {
    "name": "Monções",
    "neighborhood": "Monções",
    "city": "Pontal do Paraná",
    "state": "PR",
    "latitude": -25.7112647,
    "longitude": -48.4763062
  },
  {
    "name": "Praia de Albatroz",
    "neighborhood": "",
    "city": "Matinhos",
    "state": "PR",
    "latitude": -25.7319474,
    "longitude": -48.4890348
  },
  {
    "name": "Atami",
    "neighborhood": "Atami",
    "city": "Pontal do Paraná",
    "state": "PR",
    "latitude": -25.5921009,
    "longitude": -48.3830612
  },
  {
    "name": "Praia do Leste",
    "neighborhood": "Praia de Leste",
    "city": "Pontal do Paraná",
    "state": "PR",
    "latitude": -25.6944444,
    "longitude": -48.4658333
  },
  {
    "name": "Praia de Pontal do Sul",
    "neighborhood": "Paranaguá",
    "city": "Pontal do Paraná",
    "state": "PR",
    "latitude": -25.5783364,
    "longitude": -48.3508054
  },
  {
    "name": "Praia do Brejatuba",
    "neighborhood": "Brejatuba",
    "city": "Guaratuba",
    "state": "PR",
    "latitude": -25.9002192,
    "longitude": -48.5664135
  },
  {
    "name": "Praia de Encantadas",
    "neighborhood": "",
    "city": "Paranaguá",
    "state": "PR",
    "latitude": -25.5672516,
    "longitude": -48.3157574
  },
  {
    "name": "Balneário Riviera",
    "neighborhood": "Riviera",
    "city": "Matinhos",
    "state": "PR",
    "latitude": -25.7987138,
    "longitude": -48.5269375
  },
  {
    "name": "Praia do Cano",
    "neighborhood": "",
    "city": "Paranaguá",
    "state": "PR",
    "latitude": -25.5700558,
    "longitude": -48.305948
  },
  {
    "name": "Praia do Leste",
    "neighborhood": "Solimar",
    "city": "Matinhos",
    "state": "PR",
    "latitude": -25.7666667,
    "longitude": -48.5166667
  },
  {
    "name": "Balneário Flamingo",
    "neighborhood": "Flamingo",
    "city": "Matinhos",
    "state": "PR",
    "latitude": -25.8062542,
    "longitude": -48.52943459999999
  },
  {
    "name": "Praia de Leste",
    "neighborhood": "Praia de Leste",
    "city": "Pontal do Paraná",
    "state": "PR",
    "latitude": -25.701151,
    "longitude": -48.4699479
  },
  {
    "name": "Praia Brava de Caioba",
    "neighborhood": "Centro",
    "city": "Matinhos",
    "state": "PR",
    "latitude": -25.8432449,
    "longitude": -48.5381069
  },
  {
    "name": "Balneário Leblon",
    "neighborhood": "Leblon",
    "city": "Pontal do Paraná",
    "state": "PR",
    "latitude": -25.6474989,
    "longitude": -48.4426839
  },
  {
    "name": "Praia da Canelinha",
    "neighborhood": "",
    "city": "",
    "state": "PR",
    "latitude": -25.4687563,
    "longitude": -48.2215822
  }
]